Nmsg,Time,Ax,Ay,Az,Gx,Gy,Gz,Gfx,Gfy,Gfz,Roll,Pitch,Heading,Alt,Latitude,Longitude,Arsp,Presion,SBUS_Flags,Flight_Mode,Interruptor_1,Interruptor_2,Canal_1,Canal_2,Canal_3,Canal_4,Canal_5,Canal_6,Canal_7,Canal_8,Canal_9,Canal_10,Canal_11,Canal_12,Canal_13,Canal_14,Canal_15,Canal_16,OUT_1,OUT_2,OUT_3,OUT_4,OUT_5,OUT_6,OUT_7,OUT_8,OUT_9,OUT_10
16496,164761,0.022954077,0.39272222,9.713684,0.010985546,-0.0027824708,0.0037373367,0.0,0.0,0.0,2.3631318,-0.17514075,-55.32586,1731,0.0,0.0,0,83381,0,0,0,0,1500,1500,1500,1500,1500,1500,1500,1500,1500,1500,1500,1500,1500,1500,1500,1500,1500,1500,1500,1500,1500,1500,1000,1500,1500,1500
16497,164771,0.030265719,0.424796,9.8069,0.010392094,-0.0021217521,0.0028854727,0.0,0.0,0.0,2.3557482,-0.18254204,-55.32405,1731,0.0,0.0,0,83381,0,0,0,0,1500,1500,1500,1500,1500,1500,1500,1500,1500,1500,1500,1500,1500,1500,1500,1500,1500,1500,1500,1500,1500,1500,1000,1500,1500,1500
16498,164781,0.030265719,0.424796,9.8069,0.010392094,-0.0021217521,0.0028854727,0.0,0.0,0.0,2.3557482,-0.18254204,-55.32405,1731,0.0,0.0,0,83381,0,0,0,0,1500,1500,1500,1500,1500,1500,1500,1500,1500,1500,1500,1500,1500,1500,1500,1500,1500,1500,1500,1500,1500,1500,1000,1500,1500,1500
16499,164791,0.0298751,0.2809688,9.772694,0.0025800148,-0.012149507,0.004252049,0.0,0.0,0.0,2.3550818,-0.18037236,-55.326122,1731,0.0,0.0,0,83381,0,0,0,0,1500,1500,1500,1500,1500,1500,1500,1500,1500,1500,1500,1500,1500,1500,1500,1500,1500,1500,1500,1500,1500,1500,1000,1500,1500,1500
16500,164801,0.0298751,0.2809688,9.772694,0.0025800148,-0.012149507,0.004252049,0.0,0.0,0.0,2.3550818,-0.18037236,-55.326122,1731,0.0,0.0,0,83381,0,0,0,0,1500,1500,1500,1500,1500,1500,1500,1500,1500,1500,1500,1500,1500,1500,1500,1500,1500,1500,1500,1500,1500,1500,1000,1500,1500,1500
16501,164811,0.032815963,0.44990772,9.7141905,0.009088368,0.0028023531,0.0016878126,0.0,0.0,0.0,2.3668191,-0.17634979,-55.32708,1731,0.0,0.0,0,83381,0,0,0,0,1500,1500,1500,1500,1500,1500,1500,1500,1500,1500,1500,1500,1500,1500,1500,1500,1500,1500,1500,1500,1500,1500,1000,1500,1500,1500
16502,164821,0.032815963,0.44990772,9.7141905,0.009088368,0.0028023531,0.0016878126,0.0,0.0,0.0,2.3668191,-0.17634979,-55.32708,1731,0.0,0.0,0,83381,0,0,0,0,1500,1500,1500,1500,1500,1500,1500,1500,1500,1500,1500,1500,1500,1500,1500,1500,1500,1500,1500,1500,1500,1500,1000,1500,1500,1500
16503,164831,0.013574153,0.37167218,9.797628,0.003651913,-0.012011563,0.0051206974,0.0,0.0,0.0,2.355586,-0.18629375,-55.32668,1731,0.0,0.0,0,83381,0,0,0,0,1500,1500,1500,1500,1500,1500,1500,1500,1500,1500,1500,1500,1500,1500,1500,1500,1500,1500,1500,1500,1500,1500,1000,1500,1500,1500
16504,164841,0.013574153,0.37167218,9.797628,0.003651913,-0.012011563,0.0051206974,0.0,0.0,0.0,2.355586,-0.18629375,-55.32668,1731,0.0,0.0,0,83381,0,0,0,0,1500,1500,1500,1500,1500,1500,1500,1500,1500,1500,1500,1500,1500,1500,1500,1500,1500,1500,1500,1500,1500,1500,1000,1500,1500,1500
16505,164851,0.060456812,0.3646113,9.712995,0.008802784,-0.00037500865,0.002230327,0.0,0.0,0.0,2.362079,-0.17405719,-55.327637,1731,0.0,0.0,0,83381,0,0,0,0,1500,1500,1500,1500,1500,1500,1500,1500,1500,1500,1500,1500,1500,1500,1500,1500,1500,1500,1500,1500,1500,1500,1000,1500,1500,1500
16506,164861,0.060456812,0.3646113,9.712995,0.008802784,-0.00037500865,0.002230327,0.0,0.0,0.0,2.362079,-0.17405719,-55.327637,1731,0.0,0.0,0,83381,0,0,0,0,1500,1500,1500,1500,1500,1500,1500,1500,1500,1500,1500,1500,1500,1500,1500,1500,1500,1500,1500,1500,1500,1500,1000,1500,1500,1500
16507,164871,0.013331294,0.42701054,9.8230715,0.004235108,-0.0058040023,0.0034093661,0.0,0.0,0.0,2.358066,-0.18539065,-55.324818,1731,0.0,0.0,0,83381,0,0,0,0,1500,1500,1500,1500,1500,1500,1500,1500,1500,1500,1500,1500,1500,1500,1500,1500,1500,1500,1500,1500,1500,1500,1000,1500,1500,1500
16508,164881,0.013331294,0.42701054,9.8230715,0.004235108,-0.0058040023,0.0034093661,0.0,0.0,0.0,2.358066,-0.18539065,-55.324818,1731,0.0,0.0,0,83381,0,0,0,0,1500,1500,1500,1500,1500,1500,1500,1500,1500,1500,1500,1500,1500,1500,1500,1500,1500,1500,1500,1500,1500,1500,1000,1500,1500,1500
16509,164891,-0.0019000173,0.3789127,9.671571,0.005088902,-0.0055077327,0.0036589925,0.0,0.0,0.0,2.3638215,-0.17455323,-55.326786,1731,0.0,0.0,0,83381,0,0,0,0,1500,1500,1500,1500,1500,1500,1500,1500,1500,1500,1500,1500,1500,1500,1500,1500,1500,1500,1500,1500,1500,1500,1000,1500,1500,1500
16510,164901,-0.0019000173,0.3789127,9.671571,0.005088902,-0.0055077327,0.0036589925,0.0,0.0,0.0,2.3638215,-0.17455323,-55.326786,1731,0.0,0.0,0,83381,0,0,0,0,1500,1500,1500,1500,1500,1500,1500,1500,1500,1500,1500,1500,1500,1500,1500,1500,1500,1500,1500,1500,1500,1500,1000,1500,1500,1500
16511,164911,0.03990546,0.3771679,9.81246,0.008620593,-0.0027979072,0.0040738015,0.0,0.0,0.0,2.3583689,-0.18374437,-55.327156,1731,0.0,0.0,0,83381,0,0,0,0,1500,1500,1500,1500,1500,1500,1500,1500,1500,1500,1500,1500,1500,1500,1500,1500,1500,1500,1500,1500,1500,1500,1000,1500,1500,1500
16512,164921,0.009928614,0.38407198,9.721964,0.0069844318,-0.0043042395,0.0032938693,0.0,0.0,0.0,2.3603225,-0.17869331,-55.32664,1731,0.0,0.0,0,83381,0,0,0,0,1500,1500,1500,1500,1500,1500,1500,1500,1500,1500,1500,1500,1500,1500,1500,1500,1500,1500,1500,1500,1500,1500,1000,1500,1500,1500
16513,164931,0.009928614,0.38407198,9.721964,0.0069844318,-0.0043042395,0.0032938693,0.0,0.0,0.0,2.3603225,-0.17869331,-55.32664,1731,0.0,0.0,0,83381,0,0,0,0,1500,1500,1500,1500,1500,1500,1500,1500,1500,1500,1500,1500,1500,1500,1500,1500,1500,1500,1500,1500,1500,1500,1000,1500,1500,1500
16514,164941,0.04510227,0.4146104,9.778325,0.0078012673,-0.0033357872,0.0035319156,0.0,0.0,0.0,2.3613963,-0.1790423,-55.326385,1731,0.0,0.0,0,83381,0,0,0,0,1500,1500,1500,1500,1500,1500,1500,1500,1500,1500,1500,1500,1500,1500,1500,1500,1500,1500,1500,1500,1500,1500,1000,1500,1500,1500
16515,164951,0.04510227,0.4146104,9.778325,0.0078012673,-0.0033357872,0.0035319156,0.0,0.0,0.0,2.3613963,-0.1790423,-55.326385,1731,0.0,0.0,0,83381,0,0,0,0,1500,1500,1500,1500,1500,1500,1500,1500,1500,1500,1500,1500,1500,1500,1500,1500,1500,1500,1500,1500,1500,1500,1000,1500,1500,1500
16516,164961,0.023096234,0.38565624,9.735691,0.00596498,-0.0067840973,0.00445543,0.0,0.0,0.0,2.3595796,-0.1800729,-55.325275,1731,0.0,0.0,0,83381,0,0,0,0,1500,1500,1500,1500,1500,1500,1500,1500,1500,1500,1500,1500,1500,1500,1500,1500,1500,1500,1500,1500,1500,1500,1000,1500,1500,1500
16517,164971,0.023096234,0.38565624,9.735691,0.00596498,-0.0067840973,0.00445543,0.0,0.0,0.0,2.3595796,-0.1800729,-55.325275,1731,0.0,0.0,0,83381,0,0,0,0,1500,1500,1500,1500,1500,1500,1500,1500,1500,1500,1500,1500,1500,1500,1500,1500,1500,1500,1500,1500,1500,1500,1000,1500,1500,1500
16518,164981,0.029307395,0.41068804,9.7724495,0.008250924,-0.0008629121,0.0040438287,0.0,0.0,0.0,2.3616242,-0.17760196,-55.32576,1731,0.0,0.0,0,83381,0,0,0,0,1500,1500,1500,1500,1500,1500,1500,1500,1500,1500,1500,1500,1500,1500,1500,1500,1500,1500,1500,1500,1500,1500,1000,1500,1500,1500
16519,164991,0.009838432,0.36787832,9.756963,0.0032212385,-0.008418166,0.0042654043,0.0,0.0,0.0,2.3592434,-0.18231641,-55.327198,1731,0.0,0.0,0,83381,0,0,0,0,1500,1500,1500,1500,1500,1500,1500,1500,1500,1500,1500,1500,1500,1500,1500,1500,1500,1500,1500,1500,1500,1500,1000,1500,1500,1500
16520,165001,0.009838432,0.36787832,9.756963,0.0032212385,-0.008418166,0.0042654043,0.0,0.0,0.0,2.3592434,-0.18231641,-55.327198,1731,0.0,0.0,0,83381,0,0,0,0,1500,1500,1500,1500,1500,1500,1500,1500,1500,1500,1500,1500,1500,1500,1500,1500,1500,1500,1500,1500,1500,1500,1000,1500,1500,1500
16521,165011,0.036863655,0.40224808,9.743902,0.007869556,-0.00060478854,0.0032290013,0.0,0.0,0.0,2.3628519,-0.17729823,-55.325302,1731,0.0,0.0,0,83381,0,0,0,0,1500,1500,1500,1500,1500,1500,1500,1500,1500,1500,1500,1500,1500,1500,1500,1500,1500,1500,1500,1500,1500,1500,1000,1500,1500,1500
16522,165021,0.036863655,0.40224808,9.743902,0.007869556,-0.00060478854,0.0032290013,0.0,0.0,0.0,2.3628519,-0.17729823,-55.325302,1731,0.0,0.0,0,83381,0,0,0,0,1500,1500,1500,1500,1500,1500,1500,1500,1500,1500,1500,1500,1500,1500,1500,1500,1500,1500,1500,1500,1500,1500,1000,1500,1500,1500
16523,165031,0.036863655,0.40224808,9.743902,0.007869556,-0.00060478854,0.0032290013,0.0,0.0,0.0,2.3628519,-0.17729823,-55.325302,1731,0.0,0.0,0,83381,0,0,0,0,1500,1500,1500,1500,1500,1500,1500,1500,1500,1500,1500,1500,1500,1500,1500,1500,1500,1500,1500,1500,1500,1500,1000,1500,1500,1500
16524,165041,0.043186694,0.40498364,9.802998,0.0038467257,-0.0066144196,0.0028678116,0.0,0.0,0.0,2.3582654,-0.1815271,-55.325962,1731,0.0,0.0,0,83381,0,0,0,0,1500,1500,1500,1500,1500,1500,1500,1500,1500,1500,1500,1500,1500,1500,1500,1500,1500,1500,1500,1500,1500,1500,1000,1500,1500,1500
16525,165051,0.043186694,0.40498364,9.802998,0.0038467257,-0.0066144196,0.0028678116,0.0,0.0,0.0,2.3582654,-0.1815271,-55.325962,1731,0.0,0.0,0,83381,0,0,0,0,1500,1500,1500,1500,1500,1500,1500,1500,1500,1500,1500,1500,1500,1500,1500,1500,1500,1500,1500,1500,1500,1500,1000,1500,1500,1500
16526,165061,0.018617183,0.3859256,9.691999,0.0052155484,-0.004089537,0.0025806797,0.0,0.0,0.0,2.361633,-0.1764163,-55.32615,1731,0.0,0.0,0,83381,0,0,0,0,1500,1500,1500,1500,1500,1500,1500,1500,1500,1500,1500,1500,1500,1500,1500,1500,1500,1500,1500,1500,1500,1500,1000,1500,1500,1500
16527,165071,0.018617183,0.3859256,9.691999,0.0052155484,-0.004089537,0.0025806797,0.0,0.0,0.0,2.361633,-0.1764163,-55.32615,1731,0.0,0.0,0,83381,0,0,0,0,1500,1500,1500,1500,1500,1500,1500,1500,1500,1500,1500,1500,1500,1500,1500,1500,1500,1500,1500,1500,1500,1500,1000,1500,1500,1500
16528,165081,0.045360893,0.34248844,9.834606,0.014382353,-0.003997755,0.0024997804,0.0,0.0,0.0,2.3553991,-0.18080321,-55.326103,1731,0.0,0.0,0,83381,0,0,0,0,1500,1500,1500,1500,1500,1500,1500,1500,1500,1500,1500,1500,1500,1500,1500,1500,1500,1500,1500,1500,1500,1500,1000,1500,1500,1500
16529,165091,0.045360893,0.34248844,9.834606,0.014382353,-0.003997755,0.0024997804,0.0,0.0,0.0,2.3553991,-0.18080321,-55.326103,1731,0.0,0.0,0,83381,0,0,0,0,1500,1500,1500,1500,1500,1500,1500,1500,1500,1500,1500,1500,1500,1500,1500,1500,1500,1500,1500,1500,1500,1500,1000,1500,1500,1500
16530,165101,0.025680512,0.41706795,9.679861,0.0040976796,-0.006421617,0.0045956443,0.0,0.0,0.0,2.3580434,-0.17432207,-55.324165,1731,0.0,0.0,0,83381,0,0,0,0,1500,1500,1500,1500,1500,1500,1500,1500,1500,1500,1500,1500,1500,1500,1500,1500,1500,1500,1500,1500,1500,1500,1000,1500,1500,1500
16531,165111,0.025680512,0.41706795,9.679861,0.0040976796,-0.006421617,0.0045956443,0.0,0.0,0.0,2.3580434,-0.17432207,-55.324165,1731,0.0,0.0,0,83381,0,0,0,0,1500,1500,1500,1500,1500,1500,1500,1500,1500,1500,1500,1500,1500,1500,1500,1500,1500,1500,1500,1500,1500,1500,1000,1500,1500,1500
16532,165121,0.039709598,0.3719457,9.795186,0.0028036847,-0.0014028385,0.0029278316,0.0,0.0,0.0,2.3570385,-0.18072614,-55.32226,1731,0.0,0.0,0,83381,0,0,0,0,1500,1500,1500,1500,1500,1500,1500,1500,1500,1500,1500,1500,1500,1500,1500,1500,1500,1500,1500,1500,1500,1500,1000,1500,1500,1500
16533,165131,0.039709598,0.3719457,9.795186,0.0028036847,-0.0014028385,0.0029278316,0.0,0.0,0.0,2.3570385,-0.18072614,-55.32226,1731,0.0,0.0,0,83381,0,0,0,0,1500,1500,1500,1500,1500,1500,1500,1500,1500,1500,1500,1500,1500,1500,1500,1500,1500,1500,1500,1500,1500,1500,1000,1500,1500,1500
16534,165141,-0.00074356794,0.3890823,9.753645,0.0072729536,-0.0073912595,0.0035880855,0.0,0.0,0.0,2.3578112,-0.1782172,-55.322628,1731,0.0,0.0,0,83381,0,0,0,0,1500,1500,1500,1500,1500,1500,1500,1500,1500,1500,1500,1500,1500,1500,1500,1500,1500,1500,1500,1500,1500,1500,1000,1500,1500,1500
16535,165151,-0.00074356794,0.3890823,9.753645,0.0072729536,-0.0073912595,0.0035880855,0.0,0.0,0.0,2.3578112,-0.1782172,-55.322628,1731,0.0,0.0,0,83381,0,0,0,0,1500,1500,1500,1500,1500,1500,1500,1500,1500,1500,1500,1500,1500,1500,1500,1500,1500,1500,1500,1500,1500,1500,1000,1500,1500,1500
16536,165161,0.06754351,0.40674284,9.738917,0.0049136993,-0.00053358334,0.003282052,0.0,0.0,0.0,2.3572073,-0.17717059,-55.32324,1731,0.0,0.0,0,83381,0,0,0,0,1500,1500,1500,1500,1500,1500,1500,1500,1500,1500,1500,1500,1500,1500,1500,1500,1500,1500,1500,1500,1500,1500,1000,1500,1500,1500
16537,165171,0.06754351,0.40674284,9.738917,0.0049136993,-0.00053358334,0.003282052,0.0,0.0,0.0,2.3572073,-0.17717059,-55.32324,1731,0.0,0.0,0,83381,0,0,0,0,1500,1500,1500,1500,1500,1500,1500,1500,1500,1500,1500,1500,1500,1500,1500,1500,1500,1500,1500,1500,1500,1500,1000,1500,1500,1500
16538,165181,0.0082708,0.3807404,9.80256,0.0037138998,-0.007184798,0.003613998,0.0,0.0,0.0,2.355484,-0.18003502,-55.323467,1731,0.0,0.0,0,83381,0,0,0,0,1500,1500,1500,1500,1500,1500,1500,1500,1500,1500,1500,1500,1500,1500,1500,1500,1500,1500,1500,1500,1500,1500,1000,1500,1500,1500
16539,165191,0.0082708,0.3807404,9.80256,0.0037138998,-0.007184798,0.003613998,0.0,0.0,0.0,2.355484,-0.18003502,-55.323467,1731,0.0,0.0,0,83381,0,0,0,0,1500,1500,1500,1500,1500,1500,1500,1500,1500,1500,1500,1500,1500,1500,1500,1500,1500,1500,1500,1500,1500,1500,1000,1500,1500,1500
16540,165201,0.02967894,0.39635614,9.707226,0.009043966,-0.0027665747,0.003590507,0.0,0.0,0.0,2.3590837,-0.17645279,-55.325405,1731,0.0,0.0,0,83381,0,0,0,0,1500,1500,1500,1500,1500,1500,1500,1500,1500,1500,1500,1500,1500,1500,1500,1500,1500,1500,1500,1500,1500,1500,1000,1500,1500,1500
16541,165211,0.02967894,0.39635614,9.707226,0.009043966,-0.0027665747,0.003590507,0.0,0.0,0.0,2.3590837,-0.17645279,-55.325405,1731,0.0,0.0,0,83381,0,0,0,0,1500,1500,1500,1500,1500,1500,1500,1500,1500,1500,1500,1500,1500,1500,1500,1500,1500,1500,1500,1500,1500,1500,1000,1500,1500,1500
16542,165221,0.013846368,0.42143005,9.795946,0.0056478637,-0.004368155,0.003095211,0.0,0.0,0.0,2.3565326,-0.17902768,-55.322678,1731,0.0,0.0,0,83381,0,0,0,0,1500,1500,1500,1500,1500,1500,1500,1500,1500,1500,1500,1500,1500,1500,1500,1500,1500,1500,1500,1500,1500,1500,1000,1500,1500,1500
16543,165231,0.013846368,0.42143005,9.795946,0.0056478637,-0.004368155,0.003095211,0.0,0.0,0.0,2.3565326,-0.17902768,-55.322678,1731,0.0,0.0,0,83381,0,0,0,0,1500,1500,1500,1500,1500,1500,1500,1500,1500,1500,1500,1500,1500,1500,1500,1500,1500,1500,1500,1500,1500,1500,1000,1500,1500,1500
16544,165241,0.044433802,0.39307925,9.793317,0.008670164,-0.0023531332,0.003976962,0.0,0.0,0.0,2.3561766,-0.17798434,-55.32241,1731,0.0,0.0,0,83381,0,0,0,0,1500,1500,1500,1500,1500,1500,1500,1500,1500,1500,1500,1500,1500,1500,1500,1500,1500,1500,1500,1500,1500,1500,1000,1500,1500,1500
16545,165251,0.044433802,0.39307925,9.793317,0.008670164,-0.0023531332,0.003976962,0.0,0.0,0.0,2.3561766,-0.17798434,-55.32241,1731,0.0,0.0,0,83381,0,0,0,0,1500,1500,1500,1500,1500,1500,1500,1500,1500,1500,1500,1500,1500,1500,1500,1500,1500,1500,1500,1500,1500,1500,1000,1500,1500,1500
16546,165261,0.015616775,0.37744385,9.746947,0.0047189984,-0.0066294526,0.004847339,0.0,0.0,0.0,2.3562021,-0.17790525,-55.323124,1731,0.0,0.0,0,83381,0,0,0,0,1500,1500,1500,1500,1500,1500,1500,1500,1500,1500,1500,1500,1500,1500,1500,1500,1500,1500,1500,1500,1500,1500,1000,1500,1500,1500
16547,165271,0.015616775,0.37744385,9.746947,0.0047189984,-0.0066294526,0.004847339,0.0,0.0,0.0,2.3562021,-0.17790525,-55.323124,1731,0.0,0.0,0,83381,0,0,0,0,1500,1500,1500,1500,1500,1500,1500,1500,1500,1500,1500,1500,1500,1500,1500,1500,1500,1500,1500,1500,1500,1500,1000,1500,1500,1500
16548,165281,0.033017516,0.38196683,9.763505,0.007452364,-0.003379996,0.0035576809,0.0,0.0,0.0,2.3563993,-0.17759301,-55.3221,1731,0.0,0.0,0,83381,0,0,0,0,1500,1500,1500,1500,1500,1500,1500,1500,1500,1500,1500,1500,1500,1500,1500,1500,1500,1500,1500,1500,1500,1500,1000,1500,1500,1500
16549,165291,0.033017516,0.38196683,9.763505,0.007452364,-0.003379996,0.0035576809,0.0,0.0,0.0,2.3563993,-0.17759301,-55.3221,1731,0.0,0.0,0,83381,0,0,0,0,1500,1500,1500,1500,1500,1500,1500,1500,1500,1500,1500,1500,1500,1500,1500,1500,1500,1500,1500,1500,1500,1500,1000,1500,1500,1500
16550,165301,0.03059563,0.41464263,9.785344,0.0057182354,-0.0054765306,0.0033927327,0.0,0.0,0.0,2.3564003,-0.17793438,-55.32107,1731,0.0,0.0,0,83381,0,0,0,0,1500,1500,1500,1500,1500,1500,1500,1500,1500,1500,1500,1500,1500,1500,1500,1500,1500,1500,1500,1500,1500,1500,1000,1500,1500,1500
16551,165311,0.03059563,0.41464263,9.785344,0.0057182354,-0.0054765306,0.0033927327,0.0,0.0,0.0,2.3564003,-0.17793438,-55.32107,1731,0.0,0.0,0,83381,0,0,0,0,1500,1500,1500,1500,1500,1500,1500,1500,1500,1500,1500,1500,1500,1500,1500,1500,1500,1500,1500,1500,1500,1500,1000,1500,1500,1500
16552,165321,0.005478412,0.37410563,9.715579,0.0036385416,-0.0062354184,0.0035089743,0.0,0.0,0.0,2.3557668,-0.17824091,-55.321262,1731,0.0,0.0,0,83381,0,0,0,0,1500,1500,1500,1500,1500,1500,1500,1500,1500,1500,1500,1500,1500,1500,1500,1500,1500,1500,1500,1500,1500,1500,1000,1500,1500,1500
16553,165331,0.005478412,0.37410563,9.715579,0.0036385416,-0.0062354184,0.0035089743,0.0,0.0,0.0,2.3557668,-0.17824091,-55.321262,1731,0.0,0.0,0,83381,0,0,0,0,1500,1500,1500,1500,1500,1500,1500,1500,1500,1500,1500,1500,1500,1500,1500,1500,1500,1500,1500,1500,1500,1500,1000,1500,1500,1500
16554,165341,0.047760516,0.38166216,9.784471,0.006880893,-0.0034503555,0.0041650124,0.0,0.0,0.0,2.3562539,-0.17786981,-55.320244,1731,0.0,0.0,0,83381,0,0,0,0,1500,1500,1500,1500,1500,1500,1500,1500,1500,1500,1500,1500,1500,1500,1500,1500,1500,1500,1500,1500,1500,1500,1000,1500,1500,1500
16555,165351,0.047760516,0.38166216,9.784471,0.006880893,-0.0034503555,0.0041650124,0.0,0.0,0.0,2.3562539,-0.17786981,-55.320244,1731,0.0,0.0,0,83381,0,0,0,0,1500,1500,1500,1500,1500,1500,1500,1500,1500,1500,1500,1500,1500,1500,1500,1500,1500,1500,1500,1500,1500,1500,1000,1500,1500,1500
16556,165361,0.037389725,0.3978101,9.771369,0.0073709693,-0.004997126,0.0032830008,0.0,0.0,0.0,2.3568065,-0.17843525,-55.317707,1731,0.0,0.0,0,83381,0,0,0,0,1500,1500,1500,1500,1500,1500,1500,1500,1500,1500,1500,1500,1500,1500,1500,1500,1500,1500,1500,1500,1500,1500,1000,1500,1500,1500
16557,165371,0.037389725,0.3978101,9.771369,0.0073709693,-0.004997126,0.0032830008,0.0,0.0,0.0,2.3568065,-0.17843525,-55.317707,1731,0.0,0.0,0,83381,0,0,0,0,1500,1500,1500,1500,1500,1500,1500,1500,1500,1500,1500,1500,1500,1500,1500,1500,1500,1500,1500,1500,1500,1500,1000,1500,1500,1500
16558,165381,0.0030986667,0.37891534,9.750788,0.0052717985,-0.005127063,0.0042568697,0.0,0.0,0.0,2.3558967,-0.17772971,-55.321003,1731,0.0,0.0,0,83381,0,0,0,0,1500,1500,1500,1500,1500,1500,1500,1500,1500,1500,1500,1500,1500,1500,1500,1500,1500,1500,1500,1500,1500,1500,1000,1500,1500,1500
16559,165391,0.0030986667,0.37891534,9.750788,0.0052717985,-0.005127063,0.0042568697,0.0,0.0,0.0,2.3558967,-0.17772971,-55.321003,1731,0.0,0.0,0,83381,0,0,0,0,1500,1500,1500,1500,1500,1500,1500,1500,1500,1500,1500,1500,1500,1500,1500,1500,1500,1500,1500,1500,1500,1500,1000,1500,1500,1500
16560,165401,0.021364123,0.3832392,9.763987,0.004827779,-0.0063500046,0.003951507,0.0,0.0,0.0,2.3548028,-0.17899929,-55.32097,1731,0.0,0.0,0,83381,0,0,0,0,1500,1500,1500,1500,1500,1500,1500,1500,1500,1500,1500,1500,1500,1500,1500,1500,1500,1500,1500,1500,1500,1500,1000,1500,1500,1500
16561,165411,0.021364123,0.3832392,9.763987,0.004827779,-0.0063500046,0.003951507,0.0,0.0,0.0,2.3548028,-0.17899929,-55.32097,1731,0.0,0.0,0,83381,0,0,0,0,1500,1500,1500,1500,1500,1500,1500,1500,1500,1500,1500,1500,1500,1500,1500,1500,1500,1500,1500,1500,1500,1500,1000,1500,1500,1500
16562,165421,0.051314145,0.37348473,9.756921,0.0052955775,-0.0031430358,0.0034425326,0.0,0.0,0.0,2.3562543,-0.17680122,-55.322166,1731,0.0,0.0,0,83380,0,0,0,0,1500,1500,1500,1500,1500,1500,1500,1500,1500,1500,1500,1500,1500,1500,1500,1500,1500,1500,1500,1500,1500,1500,1000,1500,1500,1500
16563,165431,0.051314145,0.37348473,9.756921,0.0052955775,-0.0031430358,0.0034425326,0.0,0.0,0.0,2.3562543,-0.17680122,-55.322166,1731,0.0,0.0,0,83380,0,0,0,0,1500,1500,1500,1500,1500,1500,1500,1500,1500,1500,1500,1500,1500,1500,1500,1500,1500,1500,1500,1500,1500,1500,1000,1500,1500,1500
16564,165441,0.0064047575,0.40442044,9.777253,0.0062228716,-0.005207164,0.0035952083,0.0,0.0,0.0,2.356548,-0.17911828,-55.319565,1731,0.0,0.0,0,83380,0,0,0,0,1500,1500,1500,1500,1500,1500,1500,1500,1500,1500,1500,1500,1500,1500,1500,1500,1500,1500,1500,1500,1500,1500,1000,1500,1500,1500
16565,165451,0.0064047575,0.40442044,9.777253,0.0062228716,-0.005207164,0.0035952083,0.0,0.0,0.0,2.356548,-0.17911828,-55.319565,1731,0.0,0.0,0,83380,0,0,0,0,1500,1500,1500,1500,1500,1500,1500,1500,1500,1500,1500,1500,1500,1500,1500,1500,1500,1500,1500,1500,1500,1500,1000,1500,1500,1500
16566,165461,0.007948816,0.39356726,9.754699,0.006501263,-0.0048607,0.003080635,0.0,0.0,0.0,2.3567274,-0.17808464,-55.318558,1731,0.0,0.0,0,83380,0,0,0,0,1500,1500,1500,1500,1500,1500,1500,1500,1500,1500,1500,1500,1500,1500,1500,1500,1500,1500,1500,1500,1500,1500,1000,1500,1500,1500
16567,165471,0.007948816,0.39356726,9.754699,0.006501263,-0.0048607,0.003080635,0.0,0.0,0.0,2.3567274,-0.17808464,-55.318558,1731,0.0,0.0,0,83380,0,0,0,0,1500,1500,1500,1500,1500,1500,1500,1500,1500,1500,1500,1500,1500,1500,1500,1500,1500,1500,1500,1500,1500,1500,1000,1500,1500,1500
16568,165481,0.023353636,0.38926858,9.754127,0.0050493353,-0.0044442182,0.0038578948,0.0,0.0,0.0,2.3559308,-0.17885213,-55.318443,1731,0.0,0.0,0,83380,0,0,0,0,1500,1500,1500,1500,1500,1500,1500,1500,1500,1500,1500,1500,1500,1500,1500,1500,1500,1500,1500,1500,1500,1500,1000,1500,1500,1500
16569,165491,0.023353636,0.38926858,9.754127,0.0050493353,-0.0044442182,0.0038578948,0.0,0.0,0.0,2.3559308,-0.17885213,-55.318443,1731,0.0,0.0,0,83380,0,0,0,0,1500,1500,1500,1500,1500,1500,1500,1500,1500,1500,1500,1500,1500,1500,1500,1500,1500,1500,1500,1500,1500,1500,1000,1500,1500,1500
16570,165501,0.039807767,0.37512273,9.767668,0.0072794952,-0.0040938365,0.0033549853,0.0,0.0,0.0,2.3557065,-0.17896119,-55.32186,1731,0.0,0.0,0,83380,0,0,0,0,1500,1500,1500,1500,1500,1500,1500,1500,1500,1500,1500,1500,1500,1500,1500,1500,1500,1500,1500,1500,1500,1500,1000,1500,1500,1500
16571,165511,0.039807767,0.37512273,9.767668,0.0072794952,-0.0040938365,0.0033549853,0.0,0.0,0.0,2.3557065,-0.17896119,-55.32186,1731,0.0,0.0,0,83380,0,0,0,0,1500,1500,1500,1500,1500,1500,1500,1500,1500,1500,1500,1500,1500,1500,1500,1500,1500,1500,1500,1500,1500,1500,1000,1500,1500,1500
16572,165521,0.0222902,0.41463065,9.762027,0.0066712974,-0.004954791,0.0037305553,0.0,0.0,0.0,2.356939,-0.17858967,-55.320206,1731,0.0,0.0,0,83380,0,0,0,0,1500,1500,1500,1500,1500,1500,1500,1500,1500,1500,1500,1500,1500,1500,1500,1500,1500,1500,1500,1500,1500,1500,1000,1500,1500,1500
16573,165531,0.0222902,0.41463065,9.762027,0.0066712974,-0.004954791,0.0037305553,0.0,0.0,0.0,2.356939,-0.17858967,-55.320206,1731,0.0,0.0,0,83380,0,0,0,0,1500,1500,1500,1500,1500,1500,1500,1500,1500,1500,1500,1500,1500,1500,1500,1500,1500,1500,1500,1500,1500,1500,1000,1500,1500,1500
16574,165541,0.00905633,0.41045272,9.750776,0.0061775167,-0.0039882287,0.003990133,0.0,0.0,0.0,2.3569047,-0.17811315,-55.32049,1731,0.0,0.0,0,83380,0,0,0,0,1500,1500,1500,1500,1500,1500,1500,1500,1500,1500,1500,1500,1500,1500,1500,1500,1500,1500,1500,1500,1500,1500,1000,1500,1500,1500
16575,165551,0.00905633,0.41045272,9.750776,0.0061775167,-0.0039882287,0.003990133,0.0,0.0,0.0,2.3569047,-0.17811315,-55.32049,1731,0.0,0.0,0,83380,0,0,0,0,1500,1500,1500,1500,1500,1500,1500,1500,1500,1500,1500,1500,1500,1500,1500,1500,1500,1500,1500,1500,1500,1500,1000,1500,1500,1500
16576,165561,0.020628124,0.38771927,9.7819195,0.008668655,-0.0032007734,0.004137679,0.0,0.0,0.0,2.3565967,-0.17918785,-55.32221,1731,0.0,0.0,0,83380,0,0,0,0,1500,1500,1500,1500,1500,1500,1500,1500,1500,1500,1500,1500,1500,1500,1500,1500,1500,1500,1500,1500,1500,1500,1000,1500,1500,1500
16577,165571,0.020628124,0.38771927,9.7819195,0.008668655,-0.0032007734,0.004137679,0.0,0.0,0.0,2.3565967,-0.17918785,-55.32221,1731,0.0,0.0,0,83380,0,0,0,0,1500,1500,1500,1500,1500,1500,1500,1500,1500,1500,1500,1500,1500,1500,1500,1500,1500,1500,1500,1500,1500,1500,1000,1500,1500,1500
16578,165581,0.008094847,0.4059716,9.732054,0.006301707,-0.0033304119,0.0038251744,0.0,0.0,0.0,2.357969,-0.17774135,-55.321274,1731,0.0,0.0,0,83380,0,0,0,0,1500,1500,1500,1500,1500,1500,1500,1500,1500,1500,1500,1500,1500,1500,1500,1500,1500,1500,1500,1500,1500,1500,1000,1500,1500,1500
16579,165591,0.008094847,0.4059716,9.732054,0.006301707,-0.0033304119,0.0038251744,0.0,0.0,0.0,2.357969,-0.17774135,-55.321274,1731,0.0,0.0,0,83380,0,0,0,0,1500,1500,1500,1500,1500,1500,1500,1500,1500,1500,1500,1500,1500,1500,1500,1500,1500,1500,1500,1500,1500,1500,1000,1500,1500,1500
16580,165601,0.015049636,0.3855164,9.79132,0.0065056495,-0.006345199,0.004655147,0.0,0.0,0.0,2.3562915,-0.17976288,-55.32174,1731,0.0,0.0,0,83380,0,0,0,0,1500,1500,1500,1500,1500,1500,1500,1500,1500,1500,1500,1500,1500,1500,1500,1500,1500,1500,1500,1500,1500,1500,1000,1500,1500,1500
16581,165611,0.015049636,0.3855164,9.79132,0.0065056495,-0.006345199,0.004655147,0.0,0.0,0.0,2.3562915,-0.17976288,-55.32174,1731,0.0,0.0,0,83380,0,0,0,0,1500,1500,1500,1500,1500,1500,1500,1500,1500,1500,1500,1500,1500,1500,1500,1500,1500,1500,1500,1500,1500,1500,1000,1500,1500,1500
16582,165621,0.023149818,0.39359868,9.733227,0.007982988,-0.0026838656,0.0026525795,0.0,0.0,0.0,2.3581102,-0.17713003,-55.323566,1731,0.0,0.0,0,83380,0,0,0,0,1500,1500,1500,1500,1500,1500,1500,1500,1500,1500,1500,1500,1500,1500,1500,1500,1500,1500,1500,1500,1500,1500,1000,1500,1500,1500
16583,165631,0.023149818,0.39359868,9.733227,0.007982988,-0.0026838656,0.0026525795,0.0,0.0,0.0,2.3581102,-0.17713003,-55.323566,1731,0.0,0.0,0,83380,0,0,0,0,1500,1500,1500,1500,1500,1500,1500,1500,1500,1500,1500,1500,1500,1500,1500,1500,1500,1500,1500,1500,1500,1500,1000,1500,1500,1500
16584,165641,0.016791254,0.39623126,9.789874,0.004817284,-0.0066334596,0.0049494575,0.0,0.0,0.0,2.356166,-0.18059988,-55.323936,1731,0.0,0.0,0,83380,0,0,0,0,1500,1500,1500,1500,1500,1500,1500,1500,1500,1500,1500,1500,1500,1500,1500,1500,1500,1500,1500,1500,1500,1500,1000,1500,1500,1500
16585,165651,0.016791254,0.39623126,9.789874,0.004817284,-0.0066334596,0.0049494575,0.0,0.0,0.0,2.356166,-0.18059988,-55.323936,1731,0.0,0.0,0,83381,0,0,0,0,1500,1500,1500,1500,1500,1500,1500,1500,1500,1500,1500,1500,1500,1500,1500,1500,1500,1500,1500,1500,1500,1500,1000,1500,1500,1500
16586,165661,0.036800772,0.41743225,9.7226925,0.007331446,-0.0030297146,0.0024512005,0.0,0.0,0.0,2.360818,-0.17556912,-55.32423,1731,0.0,0.0,0,83381,0,0,0,0,1500,1500,1500,1500,1500,1500,1500,1500,1500,1500,1500,1500,1500,1500,1500,1500,1500,1500,1500,1500,1500,1500,1000,1500,1500,1500
16587,165671,0.036800772,0.41743225,9.7226925,0.007331446,-0.0030297146,0.0024512005,0.0,0.0,0.0,2.360818,-0.17556912,-55.32423,1731,0.0,0.0,0,83381,0,0,0,0,1500,1500,1500,1500,1500,1500,1500,1500,1500,1500,1500,1500,1500,1500,1500,1500,1500,1500,1500,1500,1500,1500,1000,1500,1500,1500
16588,165681,-0.020507067,0.37737608,9.779985,0.0045004194,-0.0048882,0.00437569,0.0,0.0,0.0,2.3554654,-0.18101409,-55.32146,1731,0.0,0.0,0,83381,0,0,0,0,1500,1500,1500,1500,1500,1500,1500,1500,1500,1500,1500,1500,1500,1500,1500,1500,1500,1500,1500,1500,1500,1500,1000,1500,1500,1500
16589,165691,-0.020507067,0.37737608,9.779985,0.0045004194,-0.0048882,0.00437569,0.0,0.0,0.0,2.3554654,-0.18101409,-55.32146,1731,0.0,0.0,0,83381,0,0,0,0,1500,1500,1500,1500,1500,1500,1500,1500,1500,1500,1500,1500,1500,1500,1500,1500,1500,1500,1500,1500,1500,1500,1000,1500,1500,1500
16590,165701,0.05547723,0.37033066,9.725091,0.008276348,-0.0052791964,0.00374258,0.0,0.0,0.0,2.3590407,-0.17702927,-55.322712,1731,0.0,0.0,0,83381,0,0,0,0,1500,1500,1500,1500,1500,1500,1500,1500,1500,1500,1500,1500,1500,1500,1500,1500,1500,1500,1500,1500,1500,1500,1000,1500,1500,1500
16591,165711,0.05547723,0.37033066,9.725091,0.008276348,-0.0052791964,0.00374258,0.0,0.0,0.0,2.3590407,-0.17702927,-55.322712,1731,0.0,0.0,0,83381,0,0,0,0,1500,1500,1500,1500,1500,1500,1500,1500,1500,1500,1500,1500,1500,1500,1500,1500,1500,1500,1500,1500,1500,1500,1000,1500,1500,1500
16592,165721,-0.007600099,0.35695463,9.775687,0.0059034554,-0.004104398,0.0037646394,0.0,0.0,0.0,2.3564348,-0.1798935,-55.31967,1731,0.0,0.0,0,83381,0,0,0,0,1500,1500,1500,1500,1500,1500,1500,1500,1500,1500,1500,1500,1500,1500,1500,1500,1500,1500,1500,1500,1500,1500,1000,1500,1500,1500
16593,165731,-0.007600099,0.35695463,9.775687,0.0059034554,-0.004104398,0.0037646394,0.0,0.0,0.0,2.3564348,-0.1798935,-55.31967,1731,0.0,0.0,0,83381,0,0,0,0,1500,1500,1500,1500,1500,1500,1500,1500,1500,1500,1500,1500,1500,1500,1500,1500,1500,1500,1500,1500,1500,1500,1000,1500,1500,1500
16594,165741,0.048282683,0.41833106,9.766551,0.0055074734,-0.006503626,0.003943597,0.0,0.0,0.0,2.36023,-0.17773078,-55.320724,1731,0.0,0.0,0,83381,0,0,0,0,1500,1500,1500,1500,1500,1500,1500,1500,1500,1500,1500,1500,1500,1500,1500,1500,1500,1500,1500,1500,1500,1500,1000,1500,1500,1500
16595,165751,0.048282683,0.41833106,9.766551,0.0055074734,-0.006503626,0.003943597,0.0,0.0,0.0,2.36023,-0.17773078,-55.320724,1731,0.0,0.0,0,83381,0,0,0,0,1500,1500,1500,1500,1500,1500,1500,1500,1500,1500,1500,1500,1500,1500,1500,1500,1500,1500,1500,1500,1500,1500,1000,1500,1500,1500
16596,165761,0.0026412308,0.3940908,9.721069,0.006343201,-0.002553476,0.003853774,0.0,0.0,0.0,2.3595047,-0.17705116,-55.32209,1731,0.0,0.0,0,83381,0,0,0,0,1500,1500,1500,1500,1500,1500,1500,1500,1500,1500,1500,1500,1500,1500,1500,1500,1500,1500,1500,1500,1500,1500,1000,1500,1500,1500
16597,165771,0.0026412308,0.3940908,9.721069,0.006343201,-0.002553476,0.003853774,0.0,0.0,0.0,2.3595047,-0.17705116,-55.32209,1731,0.0,0.0,0,83381,0,0,0,0,1500,1500,1500,1500,1500,1500,1500,1500,1500,1500,1500,1500,1500,1500,1500,1500,1500,1500,1500,1500,1500,1500,1000,1500,1500,1500
16598,165781,0.016191065,0.39902127,9.793071,0.008287378,-0.004464567,0.0042148116,0.0,0.0,0.0,2.3559358,-0.1804699,-55.320942,1731,0.0,0.0,0,83381,0,0,0,0,1500,1500,1500,1500,1500,1500,1500,1500,1500,1500,1500,1500,1500,1500,1500,1500,1500,1500,1500,1500,1500,1500,1000,1500,1500,1500
16599,165791,0.016191065,0.39902127,9.793071,0.008287378,-0.004464567,0.0042148116,0.0,0.0,0.0,2.3559358,-0.1804699,-55.320942,1731,0.0,0.0,0,83381,0,0,0,0,1500,1500,1500,1500,1500,1500,1500,1500,1500,1500,1500,1500,1500,1500,1500,1500,1500,1500,1500,1500,1500,1500,1000,1500,1500,1500
16600,165801,0.016776323,0.38593853,9.743638,0.006965476,-0.005290933,0.004099527,0.0,0.0,0.0,2.3576126,-0.17617969,-55.319233,1731,0.0,0.0,0,83381,0,0,0,0,1500,1500,1500,1500,1500,1500,1500,1500,1500,1500,1500,1500,1500,1500,1500,1500,1500,1500,1500,1500,1500,1500,1000,1500,1500,1500
16601,165811,0.016776323,0.38593853,9.743638,0.006965476,-0.005290933,0.004099527,0.0,0.0,0.0,2.3576126,-0.17617969,-55.319233,1731,0.0,0.0,0,83381,0,0,0,0,1500,1500,1500,1500,1500,1500,1500,1500,1500,1500,1500,1500,1500,1500,1500,1500,1500,1500,1500,1500,1500,1500,1000,1500,1500,1500
16602,165821,0.0027640164,0.39308396,9.764903,0.00857452,-0.0025725649,0.003359519,0.0,0.0,0.0,2.3573265,-0.18068622,-55.319267,1731,0.0,0.0,0,83381,0,0,0,0,1500,1500,1500,1500,1500,1500,1500,1500,1500,1500,1500,1500,1500,1500,1500,1500,1500,1500,1500,1500,1500,1500,1000,1500,1500,1500
16603,165831,0.0027640164,0.39308396,9.764903,0.00857452,-0.0025725649,0.003359519,0.0,0.0,0.0,2.3573265,-0.18068622,-55.319267,1731,0.0,0.0,0,83381,0,0,0,0,1500,1500,1500,1500,1500,1500,1500,1500,1500,1500,1500,1500,1500,1500,1500,1500,1500,1500,1500,1500,1500,1500,1000,1500,1500,1500
16604,165841,0.043353498,0.39225867,9.757124,0.004918847,-0.007565225,0.004390627,0.0,0.0,0.0,2.3575432,-0.17835969,-55.31951,1731,0.0,0.0,0,83381,0,0,0,0,1500,1500,1500,1500,1500,1500,1500,1500,1500,1500,1500,1500,1500,1500,1500,1500,1500,1500,1500,1500,1500,1500,1000,1500,1500,1500
16605,165851,0.043353498,0.39225867,9.757124,0.004918847,-0.007565225,0.004390627,0.0,0.0,0.0,2.3575432,-0.17835969,-55.31951,1731,0.0,0.0,0,83381,0,0,0,0,1500,1500,1500,1500,1500,1500,1500,1500,1500,1500,1500,1500,1500,1500,1500,1500,1500,1500,1500,1500,1500,1500,1000,1500,1500,1500
16606,165861,0.033332705,0.39139587,9.7568,0.007224105,-0.00077230495,0.0032474105,0.0,0.0,0.0,2.3593366,-0.17859331,-55.318913,1731,0.0,0.0,0,83381,0,0,0,0,1500,1500,1500,1500,1500,1500,1500,1500,1500,1500,1500,1500,1500,1500,1500,1500,1500,1500,1500,1500,1500,1500,1000,1500,1500,1500
16607,165871,0.033332705,0.39139587,9.7568,0.007224105,-0.00077230495,0.0032474105,0.0,0.0,0.0,2.3593366,-0.17859331,-55.318913,1731,0.0,0.0,0,83381,0,0,0,0,1500,1500,1500,1500,1500,1500,1500,1500,1500,1500,1500,1500,1500,1500,1500,1500,1500,1500,1500,1500,1500,1500,1000,1500,1500,1500
16608,165881,0.04374525,0.41637853,9.746166,0.008604799,-0.0014526204,0.0026251012,0.0,0.0,0.0,2.3614573,-0.17617552,-55.315365,1731,0.0,0.0,0,83381,0,0,0,0,1500,1500,1500,1500,1500,1500,1500,1500,1500,1500,1500,1500,1500,1500,1500,1500,1500,1500,1500,1500,1500,1500,1000,1500,1500,1500
16609,165891,0.04374525,0.41637853,9.746166,0.008604799,-0.0014526204,0.0026251012,0.0,0.0,0.0,2.3614573,-0.17617552,-55.315365,1731,0.0,0.0,0,83381,0,0,0,0,1500,1500,1500,1500,1500,1500,1500,1500,1500,1500,1500,1500,1500,1500,1500,1500,1500,1500,1500,1500,1500,1500,1000,1500,1500,1500
16610,165901,0.005888164,0.3784445,9.76662,0.004785238,-0.0074011376,0.0041341125,0.0,0.0,0.0,2.3576717,-0.18132466,-55.31641,1731,0.0,0.0,0,83381,0,0,0,0,1500,1500,1500,1500,1500,1500,1500,1500,1500,1500,1500,1500,1500,1500,1500,1500,1500,1500,1500,1500,1500,1500,1000,1500,1500,1500
16611,165911,0.005888164,0.3784445,9.76662,0.004785238,-0.0074011376,0.0041341125,0.0,0.0,0.0,2.3576717,-0.18132466,-55.31641,1731,0.0,0.0,0,83381,0,0,0,0,1500,1500,1500,1500,1500,1500,1500,1500,1500,1500,1500,1500,1500,1500,1500,1500,1500,1500,1500,1500,1500,1500,1000,1500,1500,1500
16612,165921,0.072401166,0.3862555,9.734513,0.007160892,-0.002140409,0.0036887948,0.0,0.0,0.0,2.3619618,-0.17653228,-55.317127,1731,0.0,0.0,0,83381,0,0,0,0,1500,1500,1500,1500,1500,1500,1500,1500,1500,1500,1500,1500,1500,1500,1500,1500,1500,1500,1500,1500,1500,1500,1000,1500,1500,1500
16613,165931,0.072401166,0.3862555,9.734513,0.007160892,-0.002140409,0.0036887948,0.0,0.0,0.0,2.3619618,-0.17653228,-55.317127,1731,0.0,0.0,0,83381,0,0,0,0,1500,1500,1500,1500,1500,1500,1500,1500,1500,1500,1500,1500,1500,1500,1500,1500,1500,1500,1500,1500,1500,1500,1000,1500,1500,1500
16614,165941,0.006266296,0.39033416,9.789223,0.005409292,-0.0058548776,0.0035415532,0.0,0.0,0.0,2.360262,-0.18080586,-55.318707,1731,0.0,0.0,0,83381,0,0,0,0,1500,1500,1500,1500,1500,1500,1500,1500,1500,1500,1500,1500,1500,1500,1500,1500,1500,1500,1500,1500,1500,1500,1000,1500,1500,1500
16615,165951,0.006266296,0.39033416,9.789223,0.005409292,-0.0058548776,0.0035415532,0.0,0.0,0.0,2.360262,-0.18080586,-55.318707,1731,0.0,0.0,0,83381,0,0,0,0,1500,1500,1500,1500,1500,1500,1500,1500,1500,1500,1500,1500,1500,1500,1500,1500,1500,1500,1500,1500,1500,1500,1000,1500,1500,1500
16616,165961,-0.004482746,0.3638515,9.729895,0.007504889,-0.0035313952,0.004132762,0.0,0.0,0.0,2.3619497,-0.17719203,-55.318,1731,0.0,0.0,0,83381,0,0,0,0,1500,1500,1500,1500,1500,1500,1500,1500,1500,1500,1500,1500,1500,1500,1500,1500,1500,1500,1500,1500,1500,1500,1000,1500,1500,1500
16617,165971,-0.004482746,0.3638515,9.729895,0.007504889,-0.0035313952,0.004132762,0.0,0.0,0.0,2.3619497,-0.17719203,-55.318,1731,0.0,0.0,0,83381,0,0,0,0,1500,1500,1500,1500,1500,1500,1500,1500,1500,1500,1500,1500,1500,1500,1500,1500,1500,1500,1500,1500,1500,1500,1000,1500,1500,1500
16618,165981,0.033468604,0.42573726,9.772233,0.007376153,-0.005555094,0.0038310008,0.0,0.0,0.0,2.3637824,-0.17956513,-55.315155,1731,0.0,0.0,0,83381,0,0,0,0,1500,1500,1500,1500,1500,1500,1500,1500,1500,1500,1500,1500,1500,1500,1500,1500,1500,1500,1500,1500,1500,1500,1000,1500,1500,1500
16619,165991,0.033468604,0.42573726,9.772233,0.007376153,-0.005555094,0.0038310008,0.0,0.0,0.0,2.3637824,-0.17956513,-55.315155,1731,0.0,0.0,0,83381,0,0,0,0,1500,1500,1500,1500,1500,1500,1500,1500,1500,1500,1500,1500,1500,1500,1500,1500,1500,1500,1500,1500,1500,1500,1000,1500,1500,1500
16620,166001,0.04499054,0.37014547,9.746677,0.005770076,-0.0041805743,0.0030775678,0.0,0.0,0.0,2.3625984,-0.17715126,-55.316162,1731,0.0,0.0,0,83381,0,0,0,0,1500,1500,1500,1500,1500,1500,1500,1500,1500,1500,1500,1500,1500,1500,1500,1500,1500,1500,1500,1500,1500,1500,1000,1500,1500,1500
16621,166011,0.04499054,0.37014547,9.746677,0.005770076,-0.0041805743,0.0030775678,0.0,0.0,0.0,2.3625984,-0.17715126,-55.316162,1731,0.0,0.0,0,83381,0,0,0,0,1500,1500,1500,1500,1500,1500,1500,1500,1500,1500,1500,1500,1500,1500,1500,1500,1500,1500,1500,1500,1500,1500,1000,1500,1500,1500
16622,166021,0.02681914,0.37551218,9.753098,0.0070631476,-0.0052298848,0.0035514126,0.0,0.0,0.0,2.3633137,-0.17891008,-55.316486,1731,0.0,0.0,0,83381,0,0,0,0,1500,1500,1500,1500,1500,1500,1500,1500,1500,1500,1500,1500,1500,1500,1500,1500,1500,1500,1500,1500,1500,1500,1000,1500,1500,1500
16623,166031,0.02681914,0.37551218,9.753098,0.0070631476,-0.0052298848,0.0035514126,0.0,0.0,0.0,2.3633137,-0.17891008,-55.316486,1731,0.0,0.0,0,83381,0,0,0,0,1500,1500,1500,1500,1500,1500,1500,1500,1500,1500,1500,1500,1500,1500,1500,1500,1500,1500,1500,1500,1500,1500,1000,1500,1500,1500
16624,166041,0.027288169,0.38154635,9.785356,0.0058836634,-0.0057128477,0.004185737,0.0,0.0,0.0,2.3636804,-0.17986724,-55.316414,1731,0.0,0.0,0,83381,0,0,0,0,1500,1500,1500,1500,1500,1500,1500,1500,1500,1500,1500,1500,1500,1500,1500,1500,1500,1500,1500,1500,1500,1500,1000,1500,1500,1500
16625,166051,0.027288169,0.38154635,9.785356,0.0058836634,-0.0057128477,0.004185737,0.0,0.0,0.0,2.3636804,-0.17986724,-55.316414,1731,0.0,0.0,0,83381,0,0,0,0,1500,1500,1500,1500,1500,1500,1500,1500,1500,1500,1500,1500,1500,1500,1500,1500,1500,1500,1500,1500,1500,1500,1000,1500,1500,1500
16626,166061,0.024104029,0.4112314,9.733489,0.0073004756,-0.0036026745,0.003351224,0.0,0.0,0.0,2.3674023,-0.17720217,-55.316494,1731,0.0,0.0,0,83381,0,0,0,0,1500,1500,1500,1500,1500,1500,1500,1500,1500,1500,1500,1500,1500,1500,1500,1500,1500,1500,1500,1500,1500,1500,1000,1500,1500,1500
16627,166071,0.024104029,0.4112314,9.733489,0.0073004756,-0.0036026745,0.003351224,0.0,0.0,0.0,2.3674023,-0.17720217,-55.316494,1731,0.0,0.0,0,83381,0,0,0,0,1500,1500,1500,1500,1500,1500,1500,1500,1500,1500,1500,1500,1500,1500,1500,1500,1500,1500,1500,1500,1500,1500,1000,1500,1500,1500
16628,166081,0.012423247,0.41334277,9.766168,0.0034455447,-0.0054241484,0.004000006,0.0,0.0,0.0,2.3645983,-0.1802046,-55.316315,1731,0.0,0.0,0,83381,0,0,0,0,1500,1500,1500,1500,1500,1500,1500,1500,1500,1500,1500,1500,1500,1500,1500,1500,1500,1500,1500,1500,1500,1500,1000,1500,1500,1500
16629,166091,0.012423247,0.41334277,9.766168,0.0034455447,-0.0054241484,0.004000006,0.0,0.0,0.0,2.3645983,-0.1802046,-55.316315,1731,0.0,0.0,0,83381,0,0,0,0,1500,1500,1500,1500,1500,1500,1500,1500,1500,1500,1500,1500,1500,1500,1500,1500,1500,1500,1500,1500,1500,1500,1000,1500,1500,1500
16630,166101,0.03980297,0.34234995,9.736071,0.008333645,-0.004590351,0.0037928005,0.0,0.0,0.0,2.3647285,-0.17825094,-55.31591,1731,0.0,0.0,0,83381,0,0,0,0,1500,1500,1500,1500,1500,1500,1500,1500,1500,1500,1500,1500,1500,1500,1500,1500,1500,1500,1500,1500,1500,1500,1000,1500,1500,1500
16631,166111,0.03980297,0.34234995,9.736071,0.008333645,-0.004590351,0.0037928005,0.0,0.0,0.0,2.3647285,-0.17825094,-55.31591,1731,0.0,0.0,0,83381,0,0,0,0,1500,1500,1500,1500,1500,1500,1500,1500,1500,1500,1500,1500,1500,1500,1500,1500,1500,1500,1500,1500,1500,1500,1000,1500,1500,1500
16632,166121,0.028175592,0.44301337,9.795811,0.007332459,-0.0049537765,0.0037080355,0.0,0.0,0.0,2.3667214,-0.18002349,-55.31316,1731,0.0,0.0,0,83381,0,0,0,0,1500,1500,1500,1500,1500,1500,1500,1500,1500,1500,1500,1500,1500,1500,1500,1500,1500,1500,1500,1500,1500,1500,1000,1500,1500,1500
16633,166131,0.028175592,0.44301337,9.795811,0.007332459,-0.0049537765,0.0037080355,0.0,0.0,0.0,2.3667214,-0.18002349,-55.31316,1731,0.0,0.0,0,83381,0,0,0,0,1500,1500,1500,1500,1500,1500,1500,1500,1500,1500,1500,1500,1500,1500,1500,1500,1500,1500,1500,1500,1500,1500,1000,1500,1500,1500
16634,166141,0.01567182,0.36063036,9.727197,0.0041630445,-0.005416433,0.0041532475,0.0,0.0,0.0,2.365362,-0.17832042,-55.314194,1731,0.0,0.0,0,83381,0,0,0,0,1500,1500,1500,1500,1500,1500,1500,1500,1500,1500,1500,1500,1500,1500,1500,1500,1500,1500,1500,1500,1500,1500,1000,1500,1500,1500
16635,166151,0.01567182,0.36063036,9.727197,0.0041630445,-0.005416433,0.0041532475,0.0,0.0,0.0,2.365362,-0.17832042,-55.314194,1731,0.0,0.0,0,83381,0,0,0,0,1500,1500,1500,1500,1500,1500,1500,1500,1500,1500,1500,1500,1500,1500,1500,1500,1500,1500,1500,1500,1500,1500,1000,1500,1500,1500
16636,166161,0.00255543,0.39261502,9.783682,0.0078063025,-0.0038422921,0.0031419764,0.0,0.0,0.0,2.3652413,-0.18146062,-55.311993,1731,0.0,0.0,0,83381,0,0,0,0,1500,1500,1500,1500,1500,1500,1500,1500,1500,1500,1500,1500,1500,1500,1500,1500,1500,1500,1500,1500,1500,1500,1000,1500,1500,1500
16637,166171,0.00255543,0.39261502,9.783682,0.0078063025,-0.0038422921,0.0031419764,0.0,0.0,0.0,2.3652413,-0.18146062,-55.311993,1731,0.0,0.0,0,83381,0,0,0,0,1500,1500,1500,1500,1500,1500,1500,1500,1500,1500,1500,1500,1500,1500,1500,1500,1500,1500,1500,1500,1500,1500,1000,1500,1500,1500
16638,166181,0.049938023,0.39874673,9.736363,0.005457771,-0.0046244874,0.0040307497,0.0,0.0,0.0,2.3669267,-0.1778013,-55.31564,1731,0.0,0.0,0,83381,0,0,0,0,1500,1500,1500,1500,1500,1500,1500,1500,1500,1500,1500,1500,1500,1500,1500,1500,1500,1500,1500,1500,1500,1500,1000,1500,1500,1500
16639,166191,0.049938023,0.39874673,9.736363,0.005457771,-0.0046244874,0.0040307497,0.0,0.0,0.0,2.3669267,-0.1778013,-55.31564,1731,0.0,0.0,0,83380,0,0,0,0,1500,1500,1500,1500,1500,1500,1500,1500,1500,1500,1500,1500,1500,1500,1500,1500,1500,1500,1500,1500,1500,1500,1000,1500,1500,1500
16640,166201,0.04730895,0.3908417,9.780229,0.004034912,-0.0033662058,0.0031940613,0.0,0.0,0.0,2.361562,-0.180873,-55.31505,1731,0.0,0.0,0,83381,0,0,0,0,1500,1500,1500,1500,1500,1500,1500,1500,1500,1500,1500,1500,1500,1500,1500,1500,1500,1500,1500,1500,1500,1500,1000,1500,1500,1500
16641,166211,0.04730895,0.3908417,9.780229,0.004034912,-0.0033662058,0.0031940613,0.0,0.0,0.0,2.361562,-0.180873,-55.31505,1731,0.0,0.0,0,83381,0,0,0,0,1500,1500,1500,1500,1500,1500,1500,1500,1500,1500,1500,1500,1500,1500,1500,1500,1500,1500,1500,1500,1500,1500,1000,1500,1500,1500
16642,166221,0.031009823,0.38884896,9.78972,0.0059877755,-0.0060665025,0.003931367,0.0,0.0,0.0,2.3606246,-0.18077011,-55.31325,1731,0.0,0.0,0,83381,0,0,0,0,1500,1500,1500,1500,1500,1500,1500,1500,1500,1500,1500,1500,1500,1500,1500,1500,1500,1500,1500,1500,1500,1500,1000,1500,1500,1500
16643,166231,0.031009823,0.38884896,9.78972,0.0059877755,-0.0060665025,0.003931367,0.0,0.0,0.0,2.3606246,-0.18077011,-55.31325,1731,0.0,0.0,0,83381,0,0,0,0,1500,1500,1500,1500,1500,1500,1500,1500,1500,1500,1500,1500,1500,1500,1500,1500,1500,1500,1500,1500,1500,1500,1000,1500,1500,1500
16644,166241,0.031009823,0.38884896,9.78972,0.0059877755,-0.0060665025,0.003931367,0.0,0.0,0.0,2.3606246,-0.18077011,-55.31325,1731,0.0,0.0,0,83381,0,0,0,0,1500,1500,1500,1500,1500,1500,1500,1500,1500,1500,1500,1500,1500,1500,1500,1500,1500,1500,1500,1500,1500,1500,1000,1500,1500,1500
16645,166251,0.021563858,0.3711484,9.73062,0.00589955,-0.003974594,0.0038906855,0.0,0.0,0.0,2.361391,-0.17714326,-55.314472,1731,0.0,0.0,0,83381,0,0,0,0,1500,1500,1500,1500,1500,1500,1500,1500,1500,1500,1500,1500,1500,1500,1500,1500,1500,1500,1500,1500,1500,1500,1000,1500,1500,1500
16646,166261,0.024612159,0.38361466,9.801378,0.006236401,-0.0046281517,0.0036453896,0.0,0.0,0.0,2.3598323,-0.18141313,-55.314583,1731,0.0,0.0,0,83381,0,0,0,0,1500,1500,1500,1500,1500,1500,1500,1500,1500,1500,1500,1500,1500,1500,1500,1500,1500,1500,1500,1500,1500,1500,1000,1500,1500,1500
16647,166271,0.024612159,0.38361466,9.801378,0.006236401,-0.0046281517,0.0036453896,0.0,0.0,0.0,2.3598323,-0.18141313,-55.314583,1731,0.0,0.0,0,83381,0,0,0,0,1500,1500,1500,1500,1500,1500,1500,1500,1500,1500,1500,1500,1500,1500,1500,1500,1500,1500,1500,1500,1500,1500,1000,1500,1500,1500
16648,166281,0.015144795,0.40495074,9.735228,0.005580797,-0.0053693666,0.0034776144,0.0,0.0,0.0,2.3634028,-0.17649888,-55.31495,1731,0.0,0.0,0,83381,0,0,0,0,1500,1500,1500,1500,1500,1500,1500,1500,1500,1500,1500,1500,1500,1500,1500,1500,1500,1500,1500,1500,1500,1500,1000,1500,1500,1500
16649,166291,0.015144795,0.40495074,9.735228,0.005580797,-0.0053693666,0.0034776144,0.0,0.0,0.0,2.3634028,-0.17649888,-55.31495,1731,0.0,0.0,0,83381,0,0,0,0,1500,1500,1500,1500,1500,1500,1500,1500,1500,1500,1500,1500,1500,1500,1500,1500,1500,1500,1500,1500,1500,1500,1000,1500,1500,1500
16650,166301,-0.0046322346,0.39643824,9.797012,0.006850417,-0.0031941494,0.00404343,0.0,0.0,0.0,2.3604765,-0.18040746,-55.313988,1731,0.0,0.0,0,83381,0,0,0,0,1500,1500,1500,1500,1500,1500,1500,1500,1500,1500,1500,1500,1500,1500,1500,1500,1500,1500,1500,1500,1500,1500,1000,1500,1500,1500
16651,166311,-0.0046322346,0.39643824,9.797012,0.006850417,-0.0031941494,0.00404343,0.0,0.0,0.0,2.3604765,-0.18040746,-55.313988,1731,0.0,0.0,0,83381,0,0,0,0,1500,1500,1500,1500,1500,1500,1500,1500,1500,1500,1500,1500,1500,1500,1500,1500,1500,1500,1500,1500,1500,1500,1000,1500,1500,1500
16652,166321,0.041507483,0.3839576,9.721141,0.0051903264,-0.006836742,0.0046124025,0.0,0.0,0.0,2.3631997,-0.17802691,-55.315014,1731,0.0,0.0,0,83381,0,0,0,0,1500,1500,1500,1500,1500,1500,1500,1500,1500,1500,1500,1500,1500,1500,1500,1500,1500,1500,1500,1500,1500,1500,1000,1500,1500,1500
16653,166331,0.041507483,0.3839576,9.721141,0.0051903264,-0.006836742,0.0046124025,0.0,0.0,0.0,2.3631997,-0.17802691,-55.315014,1731,0.0,0.0,0,83381,0,0,0,0,1500,1500,1500,1500,1500,1500,1500,1500,1500,1500,1500,1500,1500,1500,1500,1500,1500,1500,1500,1500,1500,1500,1000,1500,1500,1500
16654,166341,0.041507483,0.3839576,9.721141,0.0051903264,-0.006836742,0.0046124025,0.0,0.0,0.0,2.3631997,-0.17802691,-55.315014,1731,0.0,0.0,0,83381,0,0,0,0,1500,1500,1500,1500,1500,1500,1500,1500,1500,1500,1500,1500,1500,1500,1500,1500,1500,1500,1500,1500,1500,1500,1000,1500,1500,1500
16655,166351,0.028477967,0.41491154,9.79091,0.00812874,-0.0027862543,0.0028656288,0.0,0.0,0.0,2.361983,-0.17998753,-55.316414,1731,0.0,0.0,0,83381,0,0,0,0,1500,1500,1500,1500,1500,1500,1500,1500,1500,1500,1500,1500,1500,1500,1500,1500,1500,1500,1500,1500,1500,1500,1000,1500,1500,1500
16656,166361,0.02630037,0.41228116,9.769206,0.0063405484,-0.0038349328,0.0030490798,0.0,0.0,0.0,2.3615205,-0.17967452,-55.314842,1731,0.0,0.0,0,83381,0,0,0,0,1500,1500,1500,1500,1500,1500,1500,1500,1500,1500,1500,1500,1500,1500,1500,1500,1500,1500,1500,1500,1500,1500,1000,1500,1500,1500
16657,166371,0.05720064,0.386594,9.759704,0.0056870943,-0.004867972,0.0036556714,0.0,0.0,0.0,2.3612666,-0.17928423,-55.314453,1731,0.0,0.0,0,83381,0,0,0,0,1500,1500,1500,1500,1500,1500,1500,1500,1500,1500,1500,1500,1500,1500,1500,1500,1500,1500,1500,1500,1500,1500,1000,1500,1500,1500
16658,166381,0.05720064,0.386594,9.759704,0.0056870943,-0.004867972,0.0036556714,0.0,0.0,0.0,2.3612666,-0.17928423,-55.314453,1731,0.0,0.0,0,83381,0,0,0,0,1500,1500,1500,1500,1500,1500,1500,1500,1500,1500,1500,1500,1500,1500,1500,1500,1500,1500,1500,1500,1500,1500,1000,1500,1500,1500
16659,166391,0.014127165,0.39280078,9.758427,0.006974682,-0.005196027,0.003561706,0.0,0.0,0.0,2.3602068,-0.18011197,-55.314796,1731,0.0,0.0,0,83381,0,0,0,0,1500,1500,1500,1500,1500,1500,1500,1500,1500,1500,1500,1500,1500,1500,1500,1500,1500,1500,1500,1500,1500,1500,1000,1500,1500,1500
16660,166401,0.014127165,0.39280078,9.758427,0.006974682,-0.005196027,0.003561706,0.0,0.0,0.0,2.3602068,-0.18011197,-55.314796,1731,0.0,0.0,0,83381,0,0,0,0,1500,1500,1500,1500,1500,1500,1500,1500,1500,1500,1500,1500,1500,1500,1500,1500,1500,1500,1500,1500,1500,1500,1000,1500,1500,1500
16661,166411,0.039282113,0.38361654,9.7583275,0.005817375,-0.0033899783,0.0037517461,0.0,0.0,0.0,2.3607433,-0.17916961,-55.314213,1731,0.0,0.0,0,83381,0,0,0,0,1500,1500,1500,1500,1500,1500,1500,1500,1500,1500,1500,1500,1500,1500,1500,1500,1500,1500,1500,1500,1500,1500,1000,1500,1500,1500
16662,166421,0.039282113,0.38361654,9.7583275,0.005817375,-0.0033899783,0.0037517461,0.0,0.0,0.0,2.3607433,-0.17916961,-55.314213,1731,0.0,0.0,0,83381,0,0,0,0,1500,1500,1500,1500,1500,1500,1500,1500,1500,1500,1500,1500,1500,1500,1500,1500,1500,1500,1500,1500,1500,1500,1000,1500,1500,1500
16663,166431,0.006299138,0.37298176,9.774081,0.0032734624,-0.0060565607,0.003574984,0.0,0.0,0.0,2.3599455,-0.17967004,-55.314285,1731,0.0,0.0,0,83381,0,0,0,0,1500,1500,1500,1500,1500,1500,1500,1500,1500,1500,1500,1500,1500,1500,1500,1500,1500,1500,1500,1500,1500,1500,1000,1500,1500,1500
16664,166441,0.006299138,0.37298176,9.774081,0.0032734624,-0.0060565607,0.003574984,0.0,0.0,0.0,2.3599455,-0.17967004,-55.314285,1731,0.0,0.0,0,83381,0,0,0,0,1500,1500,1500,1500,1500,1500,1500,1500,1500,1500,1500,1500,1500,1500,1500,1500,1500,1500,1500,1500,1500,1500,1000,1500,1500,1500
16665,166451,0.034492403,0.39212444,9.745014,0.007463038,-0.0011242509,0.0041373647,0.0,0.0,0.0,2.3617682,-0.17812157,-55.31615,1731,0.0,0.0,0,83381,0,0,0,0,1500,1500,1500,1500,1500,1500,1500,1500,1500,1500,1500,1500,1500,1500,1500,1500,1500,1500,1500,1500,1500,1500,1000,1500,1500,1500
16666,166461,0.034492403,0.39212444,9.745014,0.007463038,-0.0011242509,0.0041373647,0.0,0.0,0.0,2.3617682,-0.17812157,-55.31615,1731,0.0,0.0,0,83381,0,0,0,0,1500,1500,1500,1500,1500,1500,1500,1500,1500,1500,1500,1500,1500,1500,1500,1500,1500,1500,1500,1500,1500,1500,1000,1500,1500,1500
16667,166471,0.013117999,0.4004358,9.794029,0.0057103224,-0.007558458,0.0034457284,0.0,0.0,0.0,2.3579757,-0.18125625,-55.317486,1731,0.0,0.0,0,83381,0,0,0,0,1500,1500,1500,1500,1500,1500,1500,1500,1500,1500,1500,1500,1500,1500,1500,1500,1500,1500,1500,1500,1500,1500,1000,1500,1500,1500
16668,166481,0.013117999,0.4004358,9.794029,0.0057103224,-0.007558458,0.0034457284,0.0,0.0,0.0,2.3579757,-0.18125625,-55.317486,1731,0.0,0.0,0,83381,0,0,0,0,1500,1500,1500,1500,1500,1500,1500,1500,1500,1500,1500,1500,1500,1500,1500,1500,1500,1500,1500,1500,1500,1500,1000,1500,1500,1500
16669,166491,0.008175522,0.36676097,9.720101,0.0076491153,-0.0029667784,0.0034916701,0.0,0.0,0.0,2.360601,-0.17684124,-55.31704,1731,0.0,0.0,0,83381,0,0,0,0,1500,1500,1500,1500,1500,1500,1500,1500,1500,1500,1500,1500,1500,1500,1500,1500,1500,1500,1500,1500,1500,1500,1000,1500,1500,1500
16670,166501,0.008175522,0.36676097,9.720101,0.0076491153,-0.0029667784,0.0034916701,0.0,0.0,0.0,2.360601,-0.17684124,-55.31704,1731,0.0,0.0,0,83381,0,0,0,0,1500,1500,1500,1500,1500,1500,1500,1500,1500,1500,1500,1500,1500,1500,1500,1500,1500,1500,1500,1500,1500,1500,1000,1500,1500,1500
16671,166511,0.04502085,0.43685746,9.7997675,0.006502219,-0.0056145275,0.0035242643,0.0,0.0,0.0,2.3603754,-0.18157555,-55.31383,1731,0.0,0.0,0,83381,0,0,0,0,1500,1500,1500,1500,1500,1500,1500,1500,1500,1500,1500,1500,1500,1500,1500,1500,1500,1500,1500,1500,1500,1500,1000,1500,1500,1500
16672,166521,0.012384623,0.3539179,9.718862,0.005780244,-0.0049829134,0.0043611005,0.0,0.0,0.0,2.3595552,-0.17698745,-55.312572,1731,0.0,0.0,0,83381,0,0,0,0,1500,1500,1500,1500,1500,1500,1500,1500,1500,1500,1500,1500,1500,1500,1500,1500,1500,1500,1500,1500,1500,1500,1000,1500,1500,1500
16673,166531,0.012384623,0.3539179,9.718862,0.005780244,-0.0049829134,0.0043611005,0.0,0.0,0.0,2.3595552,-0.17698745,-55.312572,1731,0.0,0.0,0,83381,0,0,0,0,1500,1500,1500,1500,1500,1500,1500,1500,1500,1500,1500,1500,1500,1500,1500,1500,1500,1500,1500,1500,1500,1500,1000,1500,1500,1500
16674,166541,0.030826747,0.39125133,9.806289,0.0070734094,-0.003873542,0.004011036,0.0,0.0,0.0,2.3583896,-0.18251449,-55.3115,1731,0.0,0.0,0,83381,0,0,0,0,1500,1500,1500,1500,1500,1500,1500,1500,1500,1500,1500,1500,1500,1500,1500,1500,1500,1500,1500,1500,1500,1500,1000,1500,1500,1500
16675,166551,0.030826747,0.39125133,9.806289,0.0070734094,-0.003873542,0.004011036,0.0,0.0,0.0,2.3583896,-0.18251449,-55.3115,1731,0.0,0.0,0,83381,0,0,0,0,1500,1500,1500,1500,1500,1500,1500,1500,1500,1500,1500,1500,1500,1500,1500,1500,1500,1500,1500,1500,1500,1500,1000,1500,1500,1500
16676,166561,0.01002422,0.40476295,9.722605,0.006240047,-0.006322581,0.003862971,0.0,0.0,0.0,2.3623602,-0.17745021,-55.312614,1731,0.0,0.0,0,83381,0,0,0,0,1500,1500,1500,1500,1500,1500,1500,1500,1500,1500,1500,1500,1500,1500,1500,1500,1500,1500,1500,1500,1500,1500,1000,1500,1500,1500
16677,166571,0.01002422,0.40476295,9.722605,0.006240047,-0.006322581,0.003862971,0.0,0.0,0.0,2.3623602,-0.17745021,-55.312614,1731,0.0,0.0,0,83381,0,0,0,0,1500,1500,1500,1500,1500,1500,1500,1500,1500,1500,1500,1500,1500,1500,1500,1500,1500,1500,1500,1500,1500,1500,1000,1500,1500,1500
16678,166581,0.002317816,0.3827451,9.790158,0.007260462,-0.002679428,0.0034915828,0.0,0.0,0.0,2.358033,-0.18255751,-55.310528,1731,0.0,0.0,0,83381,0,0,0,0,1500,1500,1500,1500,1500,1500,1500,1500,1500,1500,1500,1500,1500,1500,1500,1500,1500,1500,1500,1500,1500,1500,1000,1500,1500,1500
16679,166591,0.002317816,0.3827451,9.790158,0.007260462,-0.002679428,0.0034915828,0.0,0.0,0.0,2.358033,-0.18255751,-55.310528,1731,0.0,0.0,0,83381,0,0,0,0,1500,1500,1500,1500,1500,1500,1500,1500,1500,1500,1500,1500,1500,1500,1500,1500,1500,1500,1500,1500,1500,1500,1000,1500,1500,1500
16680,166601,0.054666996,0.40135345,9.730867,0.0055170343,-0.0063148714,0.0039500417,0.0,0.0,0.0,2.3622236,-0.17857869,-55.312046,1731,0.0,0.0,0,83381,0,0,0,0,1500,1500,1500,1500,1500,1500,1500,1500,1500,1500,1500,1500,1500,1500,1500,1500,1500,1500,1500,1500,1500,1500,1000,1500,1500,1500
16681,166611,0.054666996,0.40135345,9.730867,0.0055170343,-0.0063148714,0.0039500417,0.0,0.0,0.0,2.3622236,-0.17857869,-55.312046,1731,0.0,0.0,0,83381,0,0,0,0,1500,1500,1500,1500,1500,1500,1500,1500,1500,1500,1500,1500,1500,1500,1500,1500,1500,1500,1500,1500,1500,1500,1000,1500,1500,1500
16682,166621,0.0440467,0.38718426,9.783841,0.00855372,-0.0022303942,0.002437212,0.0,0.0,0.0,2.3600647,-0.1815143,-55.314323,1731,0.0,0.0,0,83381,0,0,0,0,1500,1500,1500,1500,1500,1500,1500,1500,1500,1500,1500,1500,1500,1500,1500,1500,1500,1500,1500,1500,1500,1500,1000,1500,1500,1500
16683,166631,0.0440467,0.38718426,9.783841,0.00855372,-0.0022303942,0.002437212,0.0,0.0,0.0,2.3600647,-0.1815143,-55.314323,1731,0.0,0.0,0,83381,0,0,0,0,1500,1500,1500,1500,1500,1500,1500,1500,1500,1500,1500,1500,1500,1500,1500,1500,1500,1500,1500,1500,1500,1500,1000,1500,1500,1500
16684,166641,0.0013956726,0.38516796,9.747339,0.004536243,-0.0068890564,0.00428402,0.0,0.0,0.0,2.359846,-0.17993277,-55.313923,1731,0.0,0.0,0,83381,0,0,0,0,1500,1500,1500,1500,1500,1500,1500,1500,1500,1500,1500,1500,1500,1500,1500,1500,1500,1500,1500,1500,1500,1500,1000,1500,1500,1500
16685,166651,0.0013956726,0.38516796,9.747339,0.004536243,-0.0068890564,0.00428402,0.0,0.0,0.0,2.359846,-0.17993277,-55.313923,1731,0.0,0.0,0,83381,0,0,0,0,1500,1500,1500,1500,1500,1500,1500,1500,1500,1500,1500,1500,1500,1500,1500,1500,1500,1500,1500,1500,1500,1500,1000,1500,1500,1500
16686,166661,0.03783539,0.40655148,9.764022,0.005874898,-0.002791942,0.0030743824,0.0,0.0,0.0,2.3620148,-0.17920323,-55.313786,1731,0.0,0.0,0,83381,0,0,0,0,1500,1500,1500,1500,1500,1500,1500,1500,1500,1500,1500,1500,1500,1500,1500,1500,1500,1500,1500,1500,1500,1500,1000,1500,1500,1500
16687,166671,0.03783539,0.40655148,9.764022,0.005874898,-0.002791942,0.0030743824,0.0,0.0,0.0,2.3620148,-0.17920323,-55.313786,1731,0.0,0.0,0,83381,0,0,0,0,1500,1500,1500,1500,1500,1500,1500,1500,1500,1500,1500,1500,1500,1500,1500,1500,1500,1500,1500,1500,1500,1500,1000,1500,1500,1500
16688,166681,0.058965087,0.38668454,9.779078,0.008092872,-0.0019951733,0.003526033,0.0,0.0,0.0,2.361697,-0.17961305,-55.3123,1731,0.0,0.0,0,83381,0,0,0,0,1500,1500,1500,1500,1500,1500,1500,1500,1500,1500,1500,1500,1500,1500,1500,1500,1500,1500,1500,1500,1500,1500,1000,1500,1500,1500
16689,166691,0.058965087,0.38668454,9.779078,0.008092872,-0.0019951733,0.003526033,0.0,0.0,0.0,2.361697,-0.17961305,-55.3123,1731,0.0,0.0,0,83381,0,0,0,0,1500,1500,1500,1500,1500,1500,1500,1500,1500,1500,1500,1500,1500,1500,1500,1500,1500,1500,1500,1500,1500,1500,1000,1500,1500,1500
16690,166701,0.015558928,0.3838864,9.749586,0.0051232525,-0.005822771,0.0038769057,0.0,0.0,0.0,2.361886,-0.1814619,-55.313828,1731,0.0,0.0,0,83381,0,0,0,0,1500,1500,1500,1500,1500,1500,1500,1500,1500,1500,1500,1500,1500,1500,1500,1500,1500,1500,1500,1500,1500,1500,1000,1500,1500,1500
16691,166711,0.015558928,0.3838864,9.749586,0.0051232525,-0.005822771,0.0038769057,0.0,0.0,0.0,2.361886,-0.1814619,-55.313828,1731,0.0,0.0,0,83381,0,0,0,0,1500,1500,1500,1500,1500,1500,1500,1500,1500,1500,1500,1500,1500,1500,1500,1500,1500,1500,1500,1500,1500,1500,1000,1500,1500,1500
16692,166721,0.014103413,0.39158088,9.779034,0.0076230387,-0.0032111993,0.003542323,0.0,0.0,0.0,2.3628445,-0.17807943,-55.31318,1731,0.0,0.0,0,83381,0,0,0,0,1500,1500,1500,1500,1500,1500,1500,1500,1500,1500,1500,1500,1500,1500,1500,1500,1500,1500,1500,1500,1500,1500,1000,1500,1500,1500
16693,166731,0.014103413,0.39158088,9.779034,0.0076230387,-0.0032111993,0.003542323,0.0,0.0,0.0,2.3628445,-0.17807943,-55.31318,1731,0.0,0.0,0,83381,0,0,0,0,1500,1500,1500,1500,1500,1500,1500,1500,1500,1500,1500,1500,1500,1500,1500,1500,1500,1500,1500,1500,1500,1500,1000,1500,1500,1500
16694,166741,0.03898427,0.4147092,9.770498,0.0063161654,-0.0051308465,0.0038526463,0.0,0.0,0.0,2.3628109,-0.18026896,-55.311947,1731,0.0,0.0,0,83381,0,0,0,0,1500,1500,1500,1500,1500,1500,1500,1500,1500,1500,1500,1500,1500,1500,1500,1500,1500,1500,1500,1500,1500,1500,1000,1500,1500,1500
16695,166751,0.03898427,0.4147092,9.770498,0.0063161654,-0.0051308465,0.0038526463,0.0,0.0,0.0,2.3628109,-0.18026896,-55.311947,1731,0.0,0.0,0,83381,0,0,0,0,1500,1500,1500,1500,1500,1500,1500,1500,1500,1500,1500,1500,1500,1500,1500,1500,1500,1500,1500,1500,1500,1500,1000,1500,1500,1500
16696,166761,0.010810107,0.36491305,9.745637,0.006041377,-0.0048804483,0.0036314875,0.0,0.0,0.0,2.3617706,-0.17854454,-55.311203,1731,0.0,0.0,0,83381,0,0,0,0,1500,1500,1500,1500,1500,1500,1500,1500,1500,1500,1500,1500,1500,1500,1500,1500,1500,1500,1500,1500,1500,1500,1000,1500,1500,1500
16697,166771,0.010810107,0.36491305,9.745637,0.006041377,-0.0048804483,0.0036314875,0.0,0.0,0.0,2.3617706,-0.17854454,-55.311203,1731,0.0,0.0,0,83381,0,0,0,0,1500,1500,1500,1500,1500,1500,1500,1500,1500,1500,1500,1500,1500,1500,1500,1500,1500,1500,1500,1500,1500,1500,1000,1500,1500,1500
16698,166781,0.038299173,0.39986074,9.772599,0.007188454,-0.0038194326,0.004062827,0.0,0.0,0.0,2.3632452,-0.18014473,-55.311207,1731,0.0,0.0,0,83381,0,0,0,0,1500,1500,1500,1500,1500,1500,1500,1500,1500,1500,1500,1500,1500,1500,1500,1500,1500,1500,1500,1500,1500,1500,1000,1500,1500,1500
16699,166791,0.038299173,0.39986074,9.772599,0.007188454,-0.0038194326,0.004062827,0.0,0.0,0.0,2.3632452,-0.18014473,-55.311207,1731,0.0,0.0,0,83381,0,0,0,0,1500,1500,1500,1500,1500,1500,1500,1500,1500,1500,1500,1500,1500,1500,1500,1500,1500,1500,1500,1500,1500,1500,1000,1500,1500,1500
16700,166801,0.021205723,0.39968327,9.743851,0.0056036715,-0.0043834615,0.0034947244,0.0,0.0,0.0,2.3638391,-0.17778273,-55.31058,1731,0.0,0.0,0,83381,0,0,0,0,1500,1500,1500,1500,1500,1500,1500,1500,1500,1500,1500,1500,1500,1500,1500,1500,1500,1500,1500,1500,1500,1500,1000,1500,1500,1500
16701,166811,0.021205723,0.39968327,9.743851,0.0056036715,-0.0043834615,0.0034947244,0.0,0.0,0.0,2.3638391,-0.17778273,-55.31058,1731,0.0,0.0,0,83381,0,0,0,0,1500,1500,1500,1500,1500,1500,1500,1500,1500,1500,1500,1500,1500,1500,1500,1500,1500,1500,1500,1500,1500,1500,1000,1500,1500,1500
16702,166821,0.020159543,0.38053313,9.7686205,0.0064969207,-0.0041327327,0.0033008463,0.0,0.0,0.0,2.3621895,-0.18092626,-55.31252,1731,0.0,0.0,0,83381,0,0,0,0,1500,1500,1500,1500,1500,1500,1500,1500,1500,1500,1500,1500,1500,1500,1500,1500,1500,1500,1500,1500,1500,1500,1000,1500,1500,1500
16703,166831,0.020159543,0.38053313,9.7686205,0.0064969207,-0.0041327327,0.0033008463,0.0,0.0,0.0,2.3621895,-0.18092626,-55.31252,1731,0.0,0.0,0,83381,0,0,0,0,1500,1500,1500,1500,1500,1500,1500,1500,1500,1500,1500,1500,1500,1500,1500,1500,1500,1500,1500,1500,1500,1500,1000,1500,1500,1500
